{"meta": {"code": 200, "requestId": "5e4c81b1fb34b5001b279f14"}, "response": {"venues": [{"id": "4c8fe39d04a1b60c84cda23e", "name": "Maple Street Bridge", "location": {"lat": 47.6593193976169, "lng": -117.4350172508928, "labeledLatLngs": [{"label": "display", "lat": 47.6593193976169, "lng": -117.4350172508928}], "cc": "US", "city": "Spokane", "state": "WA", "country": "United States", "formattedAddress": ["Spokane, WA", "United States"]}, "categories": [{"id": "4bf58dd8d48988d1df941735", "name": "Bridge", "pluralName": "Bridges", "shortName": "Bridge", "icon": {"prefix": "https://ss3.4sqi.net/img/categories_v2/parks_outdoors/bridge_", "suffix": ".png"}, "primary": true}], "referralId": "v-1582072319", "hasPerk": false}, {"id": "4b959b84f964a520dfab34e3", "name": "Brews Bros Lounge", "location": {"address": "734 W Sprague Ave", "crossStreet": "at S Post St", "lat": 47.65722605169036, "lng": -117.42348302206732, "labeledLatLngs": [{"label": "display", "lat": 47.65722605169036, "lng": -117.42348302206732}], "postalCode": "99201", "cc": "US", "city": "Spokane", "state": "WA", "country": "United States", "formattedAddress": ["734 W Sprague Ave (at S Post St)", "Spokane, WA 99201", "United States"]}, "categories": [{"id": "4bf58dd8d48988d1e0931735", "name": "Coffee Shop", "pluralName": "Coffee Shops", "shortName": "Coffee Shop", "icon": {"prefix": "https://ss3.4sqi.net/img/categories_v2/food/coffeeshop_", "suffix": ".png"}, "primary": true}], "referralId": "v-1582072319", "hasPerk": false}, {"id": "4b6b78b8f964a520ed0a2ce3", "name": "Spokane Club", "location": {"address": "1002 W Riverside Ave", "crossStreet": "N Monroe St", "lat": 47.658838932559554, "lng": -117.42698944095041, "labeledLatLngs": [{"label": "display", "lat": 47.658838932559554, "lng": -117.42698944095041}], "postalCode": "99201", "cc": "US", "neighborhood": "Peaceful Valley", "city": "Spokane", "state": "WA", "country": "United States", "formattedAddress": ["1002 W Riverside Ave (N Monroe St)", "Spokane, WA 99201", "United States"]}, "categories": [{"id": "4bf58dd8d48988d175941735", "name": "Gym / Fitness Center", "pluralName": "Gyms or Fitness Centers", "shortName": "Gym / Fitness", "icon": {"prefix": "https://ss3.4sqi.net/img/categories_v2/building/gym_", "suffix": ".png"}, "primary": true}], "referralId": "v-1582072319", "hasPerk": false}, {"id": "551f16fc498eb4cd798da264", "name": "Horizon Distributors", "location": {"address": "4004 East Francis Avenue", "lat": 47.7144568, "lng": -117.3514939, "labeledLatLngs": [{"label": "display", "lat": 47.7144568, "lng": -117.3514939}], "postalCode": "99217", "cc": "US", "city": "Spokane", "state": "WA", "country": "United States", "formattedAddress": ["4004 East Francis Avenue", "Spokane, WA 99217", "United States"]}, "categories": [], "referralId": "v-1582072319", "hasPerk": false}, {"id": "53b876d6498eef48c8417f66", "name": "Veraci Pizza", "location": {"address": "1333 W Summit Pkwy", "lat": 47.66157741499316, "lng": -117.4317600884095, "labeledLatLngs": [{"label": "display", "lat": 47.66157741499316, "lng": -117.4317600884095}], "postalCode": "99201", "cc": "US", "city": "Spokane", "state": "WA", "country": "United States", "formattedAddress": ["1333 W Summit Pkwy", "Spokane, WA 99201", "United States"]}, "categories": [{"id": "4bf58dd8d48988d1ca941735", "name": "Pizza Place", "pluralName": "Pizza Places", "shortName": "Pizza", "icon": {"prefix": "https://ss3.4sqi.net/img/categories_v2/food/pizza_", "suffix": ".png"}, "primary": true}], "delivery": {"id": "1568524", "url": "https://www.grubhub.com/restaurant/veraci-pizza-1333-west-summit-parkway-spokane/1568524?affiliate=1131&utm_source=foursquare-affiliate-network&utm_medium=affiliate&utm_campaign=1131&utm_content=1568524", "provider": {"name": "grubhub", "icon": {"prefix": "https://fastly.4sqi.net/img/general/cap/", "sizes": [40, 50], "name": "/delivery_provider_grubhub_20180129.png"}}}, "referralId": "v-1582072319", "hasPerk": false}, {"id": "4c3162e53896e21e8c08e790", "name": "Monroe Street Bridge", "location": {"address": "418 N Monroe St", "lat": 47.660879673384365, "lng": -117.42657290123715, "labeledLatLngs": [{"label": "display", "lat": 47.660879673384365, "lng": -117.42657290123715}], "postalCode": "99201", "cc": "US", "city": "Spokane", "state": "WA", "country": "United States", "formattedAddress": ["418 N Monroe St", "Spokane, WA 99201", "United States"]}, "categories": [{"id": "4bf58dd8d48988d1df941735", "name": "Bridge", "pluralName": "Bridges", "shortName": "Bridge", "icon": {"prefix": "https://ss3.4sqi.net/img/categories_v2/parks_outdoors/bridge_", "suffix": ".png"}, "primary": true}], "referralId": "v-1582072319", "hasPerk": false}, {"id": "54436e29498e3db5fcfdba74", "name": "Barrister Winery", "location": {"lat": 47.6600716, "lng": -117.4316272, "labeledLatLngs": [{"label": "display", "lat": 47.6600716, "lng": -117.4316272}], "cc": "US", "city": "Spokane", "state": "WA", "country": "United States", "formattedAddress": ["Spokane, WA", "United States"]}, "categories": [], "referralId": "v-1582072319", "hasPerk": false}, {"id": "5ae666d6a6fe4d002c37aae2", "name": "1910", "location": {"address": "1002 W Riverside Ave", "crossStreet": "Lincoln", "lat": 47.658840000000005, "lng": -117.42709599999999, "labeledLatLngs": [{"label": "display", "lat": 47.658840000000005, "lng": -117.42709599999999}], "postalCode": "99201", "cc": "US", "city": "Spokane", "state": "WA", "country": "United States", "formattedAddress": ["1002 W Riverside Ave (Lincoln)", "Spokane, WA 99201", "United States"]}, "categories": [{"id": "4bf58dd8d48988d1c4941735", "name": "Restaurant", "pluralName": "Restaurants", "shortName": "Restaurant", "icon": {"prefix": "https://ss3.4sqi.net/img/categories_v2/food/default_", "suffix": ".png"}, "primary": true}], "referralId": "v-1582072319", "hasPerk": false}, {"id": "4cf69c6cb9792d43172a5595", "name": "North Coast Life Insurance", "location": {"address": "1116 W Riverside Ave", "lat": 47.65856401525862, "lng": -117.4286972626731, "labeledLatLngs": [{"label": "display", "lat": 47.65856401525862, "lng": -117.4286972626731}], "postalCode": "99201", "cc": "US", "city": "Spokane", "state": "WA", "country": "United States", "formattedAddress": ["1116 W Riverside Ave", "Spokane, WA 99201", "United States"]}, "categories": [{"id": "4bf58dd8d48988d124941735", "name": "Office", "pluralName": "Offices", "shortName": "Office", "icon": {"prefix": "https://ss3.4sqi.net/img/categories_v2/building/default_", "suffix": ".png"}, "primary": true}], "referralId": "v-1582072319", "hasPerk": false}, {"id": "4b90252ff964a520667833e3", "name": "White House Black Market", "location": {"address": "808 W Main Avenue, Ste 104", "crossStreet": "Lincoln", "lat": 47.660039301563096, "lng": -117.42626117210871, "labeledLatLngs": [{"label": "display", "lat": 47.660039301563096, "lng": -117.42626117210871}], "postalCode": "99201", "cc": "US", "city": "Spokane", "state": "WA", "country": "United States", "formattedAddress": ["808 W Main Avenue, Ste 104 (Lincoln)", "Spokane, WA 99201", "United States"]}, "categories": [{"id": "4bf58dd8d48988d108951735", "name": "Women's Store", "pluralName": "Women's Stores", "shortName": "Women's Store", "icon": {"prefix": "https://ss3.4sqi.net/img/categories_v2/shops/apparel_women_", "suffix": ".png"}, "primary": true}], "referralId": "v-1582072319", "hasPerk": false}, {"id": "5938582524962304d66ac3a8", "name": "Land Rover Spokane", "location": {"address": "1310 W 3rd Ave Ste 3", "lat": 47.66027149880147, "lng": -117.42944419384001, "labeledLatLngs": [{"label": "display", "lat": 47.66027149880147, "lng": -117.42944419384001}], "postalCode": "99201", "cc": "US", "city": "Spokane", "state": "WA", "country": "United States", "formattedAddress": ["1310 W 3rd Ave Ste 3", "Spokane, WA 99201", "United States"]}, "categories": [{"id": "56aa371be4b08b9a8d573517", "name": "Business Center", "pluralName": "Business Centers", "shortName": "Business Center", "icon": {"prefix": "https://ss3.4sqi.net/img/categories_v2/building/default_", "suffix": ".png"}, "primary": true}], "referralId": "v-1582072319", "hasPerk": false}, {"id": "4c1e42d0b4e62d7f6eeddd93", "name": "Cathedral Of Our Lady of Lourdes", "location": {"address": "1115 W Riverside Ave", "lat": 47.65805819440598, "lng": -117.4284923720874, "labeledLatLngs": [{"label": "display", "lat": 47.65805819440598, "lng": -117.4284923720874}], "postalCode": "99201", "cc": "US", "city": "Spokane", "state": "WA", "country": "United States", "formattedAddress": ["1115 W Riverside Ave", "Spokane, WA 99201", "United States"]}, "categories": [{"id": "4bf58dd8d48988d132941735", "name": "Church", "pluralName": "Churches", "shortName": "Church", "icon": {"prefix": "https://ss3.4sqi.net/img/categories_v2/building/religious_church_", "suffix": ".png"}, "primary": true}], "referralId": "v-1582072319", "hasPerk": false}, {"id": "4fbd8b42e4b010724eb45383", "name": "Joes mini mart", "location": {"lat": 47.66048578772769, "lng": -117.42652024256593, "labeledLatLngs": [{"label": "display", "lat": 47.66048578772769, "lng": -117.42652024256593}], "postalCode": "99201", "cc": "US", "city": "Spokane", "state": "WA", "country": "United States", "formattedAddress": ["Spokane, WA 99201", "United States"]}, "categories": [{"id": "4bf58dd8d48988d118951735", "name": "Grocery Store", "pluralName": "Grocery Stores", "shortName": "Grocery Store", "icon": {"prefix": "https://ss3.4sqi.net/img/categories_v2/shops/food_grocery_", "suffix": ".png"}, "primary": true}], "referralId": "v-1582072319", "hasPerk": false}, {"id": "5dab93e1e370da00086b92c4", "name": "The Philanthropy Center", "location": {"lat": 47.658696, "lng": -117.427567, "labeledLatLngs": [{"label": "display", "lat": 47.658696, "lng": -117.427567}], "postalCode": "99201", "cc": "US", "city": "Spokane", "state": "WA", "country": "United States", "formattedAddress": ["Spokane, WA 99201", "United States"]}, "categories": [{"id": "4bf58dd8d48988d130941735", "name": "Building", "pluralName": "Buildings", "shortName": "Building", "icon": {"prefix": "https://ss3.4sqi.net/img/categories_v2/building/default_", "suffix": ".png"}, "primary": true}], "referralId": "v-1582072319", "hasPerk": false}, {"id": "5d7c2cf80f639400085c691f", "name": "Spokane Club Hotel", "location": {"address": "1002 W Riverside Ave, Spokane, WA 99201, USA", "lat": 47.658745, "lng": -117.427059, "labeledLatLngs": [{"label": "display", "lat": 47.658745, "lng": -117.427059}], "postalCode": "99201", "cc": "US", "city": "Spokane", "state": "WA", "country": "United States", "formattedAddress": ["1002 W Riverside Ave, Spokane, WA 99201, USA", "Spokane, WA 99201", "United States"]}, "categories": [{"id": "4bf58dd8d48988d1fa931735", "name": "Hotel", "pluralName": "Hotels", "shortName": "Hotel", "icon": {"prefix": "https://ss3.4sqi.net/img/categories_v2/travel/hotel_", "suffix": ".png"}, "primary": true}], "referralId": "v-1582072319", "hasPerk": false}, {"id": "50b66978b0edf668b089c26a", "name": "Spa Paradiso", "location": {"address": "1237 W Summit Pkwy", "crossStreet": "Cedar and College", "lat": 47.66152, "lng": -117.43094599999999, "labeledLatLngs": [{"label": "display", "lat": 47.66152, "lng": -117.43094599999999}], "postalCode": "99201", "cc": "US", "city": "Spokane", "state": "WA", "country": "United States", "formattedAddress": ["1237 W Summit Pkwy (Cedar and College)", "Spokane, WA 99201", "United States"]}, "categories": [{"id": "4bf58dd8d48988d1ed941735", "name": "Spa", "pluralName": "Spas", "shortName": "Spa", "icon": {"prefix": "https://ss3.4sqi.net/img/categories_v2/shops/spa_", "suffix": ".png"}, "primary": true}], "venuePage": {"id": "66960764"}, "referralId": "v-1582072319", "hasPerk": false}, {"id": "5cc9fd49ccad6b002c348111", "name": "Prairie Dog Pet Mercantile", "location": {"address": "1206 W Summit Pkwy # C106", "lat": 47.6619501, "lng": -117.4304237, "labeledLatLngs": [{"label": "display", "lat": 47.6619501, "lng": -117.4304237}], "postalCode": "99201", "cc": "US", "city": "Spokane", "state": "WA", "country": "United States", "formattedAddress": ["1206 W Summit Pkwy # C106", "Spokane, WA 99201", "United States"]}, "categories": [{"id": "4bf58dd8d48988d100951735", "name": "Pet Store", "pluralName": "Pet Stores", "shortName": "Pet Store", "icon": {"prefix": "https://ss3.4sqi.net/img/categories_v2/shops/pet_store_", "suffix": ".png"}, "primary": true}], "referralId": "v-1582072319", "hasPerk": false}, {"id": "4dc4a2b2c65b89d3ca5a8fa2", "name": "Burgandy's At The Spokane Club", "location": {"lat": 47.658792601617655, "lng": -117.42710469607609, "labeledLatLngs": [{"label": "display", "lat": 47.658792601617655, "lng": -117.42710469607609}], "cc": "US", "city": "Spokane", "state": "WA", "country": "United States", "formattedAddress": ["Spokane, WA", "United States"]}, "categories": [{"id": "4d4b7105d754a06374d81259", "name": "Food", "pluralName": "Food", "shortName": "Food", "icon": {"prefix": "https://ss3.4sqi.net/img/categories_v2/food/default_", "suffix": ".png"}, "primary": true}], "referralId": "v-1582072319", "hasPerk": false}, {"id": "4f332b97e4b0d65e6018889b", "name": "New Hope Bible Church", "location": {"lat": 47.65878, "lng": -117.426047, "labeledLatLngs": [{"label": "display", "lat": 47.65878, "lng": -117.426047}], "postalCode": "99201", "cc": "US", "city": "Spokane", "state": "WA", "country": "United States", "formattedAddress": ["Spokane, WA 99201", "United States"]}, "categories": [{"id": "4bf58dd8d48988d132941735", "name": "Church", "pluralName": "Churches", "shortName": "Church", "icon": {"prefix": "https://ss3.4sqi.net/img/categories_v2/building/religious_church_", "suffix": ".png"}, "primary": true}], "referralId": "v-1582072319", "hasPerk": false}, {"id": "5dfd32b6d8f18f0008da7f4e", "name": "Fleet Feet", "location": {"address": "1315 W Summit Pkwy", "lat": 47.6617911, "lng": -117.4315712, "labeledLatLngs": [{"label": "display", "lat": 47.6617911, "lng": -117.4315712}], "postalCode": "99201", "cc": "US", "city": "Spokane", "state": "WA", "country": "United States", "formattedAddress": ["1315 W Summit Pkwy", "Spokane, WA 99201", "United States"]}, "categories": [{"id": "4bf58dd8d48988d107951735", "name": "Shoe Store", "pluralName": "Shoe Stores", "shortName": "Shoes", "icon": {"prefix": "https://ss3.4sqi.net/img/categories_v2/shops/apparel_shoestore_", "suffix": ".png"}, "primary": true}], "referralId": "v-1582072319", "hasPerk": false}, {"id": "5a05d939c876c8554f647807", "name": "Summit Medical Center", "location": {"address": "546 N Jefferson Ln", "lat": 47.662322, "lng": -117.429316, "labeledLatLngs": [{"label": "display", "lat": 47.662322, "lng": -117.429316}], "postalCode": "99201", "cc": "US", "city": "Spokane", "state": "WA", "country": "United States", "formattedAddress": ["546 N Jefferson Ln", "Spokane, WA 99201", "United States"]}, "categories": [{"id": "4bf58dd8d48988d104941735", "name": "Medical Center", "pluralName": "Medical Centers", "shortName": "Medical", "icon": {"prefix": "https://ss3.4sqi.net/img/categories_v2/building/medical_", "suffix": ".png"}, "primary": true}], "referralId": "v-1582072319", "hasPerk": false}, {"id": "5afcd6f5c9a51700391758d1", "name": "Umi Kitchen and Sushi Bar", "location": {"address": "1309 W Summit Pkwy", "lat": 47.661591, "lng": -117.43115, "labeledLatLngs": [{"label": "display", "lat": 47.661591, "lng": -117.43115}], "postalCode": "99201", "cc": "US", "city": "Spokane", "state": "WA", "country": "United States", "formattedAddress": ["1309 W Summit Pkwy", "Spokane, WA 99201", "United States"]}, "categories": [{"id": "4bf58dd8d48988d1d2941735", "name": "Sushi Restaurant", "pluralName": "Sushi Restaurants", "shortName": "Sushi", "icon": {"prefix": "https://ss3.4sqi.net/img/categories_v2/food/sushi_", "suffix": ".png"}, "primary": true}], "delivery": {"id": "1548504", "url": "https://www.grubhub.com/restaurant/umi-kitchen-and-sushi-bar-1309-west-summit-parkway-spokane/1548504?affiliate=1131&utm_source=foursquare-affiliate-network&utm_medium=affiliate&utm_campaign=1131&utm_content=1548504", "provider": {"name": "grubhub", "icon": {"prefix": "https://fastly.4sqi.net/img/general/cap/", "sizes": [40, 50], "name": "/delivery_provider_grubhub_20180129.png"}}}, "referralId": "v-1582072319", "hasPerk": false}, {"id": "553ed6a9498e117857a51d88", "name": "Nectar Wine & Beer", "location": {"address": "1331 W Summit Pkwy", "crossStreet": "N. Maple", "lat": 47.6617068, "lng": -117.4316722, "labeledLatLngs": [{"label": "display", "lat": 47.6617068, "lng": -117.4316722}], "postalCode": "99201", "cc": "US", "city": "Spokane", "state": "WA", "country": "United States", "formattedAddress": ["1331 W Summit Pkwy (N. Maple)", "Spokane, WA 99201", "United States"]}, "categories": [{"id": "4bf58dd8d48988d116941735", "name": "Bar", "pluralName": "Bars", "shortName": "Bar", "icon": {"prefix": "https://ss3.4sqi.net/img/categories_v2/nightlife/pub_", "suffix": ".png"}, "primary": true}], "referralId": "v-1582072319", "hasPerk": false}, {"id": "4bfc32e4e05e0f47db54cfa8", "name": "US Post Office", "location": {"address": "904 W Riverside Ave", "crossStreet": "Lincoln", "lat": 47.65821447518387, "lng": -117.42504819718842, "labeledLatLngs": [{"label": "display", "lat": 47.65821447518387, "lng": -117.42504819718842}], "postalCode": "99201", "cc": "US", "city": "Spokane", "state": "WA", "country": "United States", "formattedAddress": ["904 W Riverside Ave (Lincoln)", "Spokane, WA 99201", "United States"]}, "categories": [{"id": "4bf58dd8d48988d172941735", "name": "Post Office", "pluralName": "Post Offices", "shortName": "Post Office", "icon": {"prefix": "https://ss3.4sqi.net/img/categories_v2/building/postoffice_", "suffix": ".png"}, "primary": true}], "referralId": "v-1582072319", "hasPerk": false}, {"id": "562047e5498eaf511714d439", "name": "Anthropologie", "location": {"address": "885 W Main Ave", "lat": 47.658698, "lng": -117.424275, "labeledLatLngs": [{"label": "display", "lat": 47.658698, "lng": -117.424275}], "postalCode": "99201", "cc": "US", "city": "Spokane", "state": "WA", "country": "United States", "formattedAddress": ["885 W Main Ave", "Spokane, WA 99201", "United States"]}, "categories": [{"id": "4bf58dd8d48988d108951735", "name": "Women's Store", "pluralName": "Women's Stores", "shortName": "Women's Store", "icon": {"prefix": "https://ss3.4sqi.net/img/categories_v2/shops/apparel_women_", "suffix": ".png"}, "primary": true}], "referralId": "v-1582072319", "hasPerk": false}, {"id": "59fa7708c824ae0997607b02", "name": "Inland Northwest Ballet of Spokane", "location": {"address": "401 W Hastings Rd", "lat": 47.767549, "lng": -117.419979, "labeledLatLngs": [{"label": "display", "lat": 47.767549, "lng": -117.419979}], "postalCode": "99218", "cc": "US", "city": "Spokane", "state": "WA", "country": "United States", "formattedAddress": ["401 W Hastings Rd", "Spokane, WA 99218", "United States"]}, "categories": [{"id": "4bf58dd8d48988d134941735", "name": "Dance Studio", "pluralName": "Dance Studios", "shortName": "Dance Studio", "icon": {"prefix": "https://ss3.4sqi.net/img/categories_v2/arts_entertainment/performingarts_dancestudio_", "suffix": ".png"}, "primary": true}], "referralId": "v-1582072319", "hasPerk": false}, {"id": "4be1d9aeae55a593bfc15b62", "name": "Williams-Sonoma", "location": {"address": "808 W Main Ave", "lat": 47.65916413902808, "lng": -117.42378731153669, "labeledLatLngs": [{"label": "display", "lat": 47.65916413902808, "lng": -117.42378731153669}], "postalCode": "99201", "cc": "US", "city": "Spokane", "state": "WA", "country": "United States", "formattedAddress": ["808 W Main Ave", "Spokane, WA 99201", "United States"]}, "categories": [{"id": "58daa1558bbb0b01f18ec1b4", "name": "Kitchen Supply Store", "pluralName": "Kitchen Supply Stores", "shortName": "Kitchen Supply", "icon": {"prefix": "https://ss3.4sqi.net/img/categories_v2/shops/food_butcher_", "suffix": ".png"}, "primary": true}], "referralId": "v-1582072319", "hasPerk": false}, {"id": "4b369579f964a5207d3825e3", "name": "Nordstrom", "location": {"address": "828 W Main Ave", "lat": 47.659536233723756, "lng": -117.42463767528534, "labeledLatLngs": [{"label": "display", "lat": 47.659536233723756, "lng": -117.42463767528534}], "postalCode": "99201", "cc": "US", "city": "Spokane", "state": "WA", "country": "United States", "formattedAddress": ["828 W Main Ave", "Spokane, WA 99201", "United States"]}, "categories": [{"id": "4bf58dd8d48988d1f6941735", "name": "Department Store", "pluralName": "Department Stores", "shortName": "Department Store", "icon": {"prefix": "https://ss3.4sqi.net/img/categories_v2/shops/departmentstore_", "suffix": ".png"}, "primary": true}], "referralId": "v-1582072319", "hasPerk": false}, {"id": "595673a635dfa7647d2aa8a4", "name": "My Fresh Basket", "location": {"address": "1030 W Summit Pkwy", "crossStreet": "N Monroe St", "lat": 47.66259448728524, "lng": -117.42722188291893, "labeledLatLngs": [{"label": "display", "lat": 47.66259448728524, "lng": -117.42722188291893}], "postalCode": "99201", "cc": "US", "city": "Spokane", "state": "WA", "country": "United States", "formattedAddress": ["1030 W Summit Pkwy (N Monroe St)", "Spokane, WA 99201", "United States"]}, "categories": [{"id": "4bf58dd8d48988d118951735", "name": "Grocery Store", "pluralName": "Grocery Stores", "shortName": "Grocery Store", "icon": {"prefix": "https://ss3.4sqi.net/img/categories_v2/shops/food_grocery_", "suffix": ".png"}, "primary": true}], "referralId": "v-1582072319", "hasPerk": false}], "confident": false, "geocode": {"what": "", "where": "spokane wa", "feature": {"cc": "US", "name": "Spokane", "displayName": "Spokane, WA, United States", "matchedName": "Spokane, WA, United States", "highlightedName": "<b>Spokane</b>, <b>WA</b>, United States", "woeType": 7, "slug": "spokane-washington", "id": "geonameid:5811696", "longId": "72057594043739632", "geometry": {"center": {"lat": 47.65966, "lng": -117.42908}, "bounds": {"ne": {"lat": 47.758795, "lng": -117.303865}, "sw": {"lat": 47.5871, "lng": -117.604061}}}}, "parents": []}}}